[
  {
    "id": "bj_forbidden_city",
    "name": "故宫博物院",
    "city": "北京",
    "lat": 39.916345,
    "lon": 116.397155,
    "themes": ["历史", "文化"],
    "cluster": "central_axis",
    "duration_hours": 3.0,
    "ticket_price": 60.0,
    "is_free": false,
    "requires_reservation": true,
    "reservation_days_ahead": 7,
    "open_hours": "08:30-17:00",
    "closed_rules": "周一闭馆（法定节假日除外）",
    "closed_weekdays": [0],
    "notes": "春节高峰建议08:30前入场，预留安检与检票缓冲。"
  },
  {
    "id": "bj_tiananmen_square",
    "name": "天安门广场",
    "city": "北京",
    "lat": 39.903018,
    "lon": 116.397624,
    "themes": ["历史", "地标"],
    "cluster": "central_axis",
    "duration_hours": 1.5,
    "ticket_price": 0.0,
    "is_free": true,
    "requires_reservation": true,
    "reservation_days_ahead": 1,
    "open_hours": "05:00-22:00",
    "closed_rules": "重大活动可能临时管控",
    "closed_weekdays": [],
    "notes": "升旗时段人流极高，建议错峰14:00后进入。"
  },
  {
    "id": "bj_tiananmen_tower",
    "name": "天安门城楼",
    "city": "北京",
    "lat": 39.907085,
    "lon": 116.397483,
    "themes": ["历史", "地标"],
    "cluster": "central_axis",
    "duration_hours": 1.0,
    "ticket_price": 15.0,
    "is_free": false,
    "requires_reservation": true,
    "reservation_days_ahead": 3,
    "open_hours": "08:30-16:30",
    "closed_rules": "极端天气与重大活动可能停开",
    "closed_weekdays": [],
    "notes": "需携带有效证件，安检排队建议预留40分钟。"
  },
  {
    "id": "bj_tiantan",
    "name": "天坛公园",
    "city": "北京",
    "lat": 39.882243,
    "lon": 116.406454,
    "themes": ["历史", "文化", "园林"],
    "cluster": "temple",
    "duration_hours": 2.5,
    "ticket_price": 34.0,
    "is_free": false,
    "requires_reservation": false,
    "reservation_days_ahead": 0,
    "open_hours": "06:00-21:00",
    "closed_rules": "祈年殿等室内展馆可能按时段关闭",
    "closed_weekdays": [],
    "notes": "春节晨间人流较大，建议13:00后入园。"
  },
  {
    "id": "bj_jingshan",
    "name": "景山公园",
    "city": "北京",
    "lat": 39.923236,
    "lon": 116.396144,
    "themes": ["历史", "自然"],
    "cluster": "imperial_garden",
    "duration_hours": 1.5,
    "ticket_price": 2.0,
    "is_free": false,
    "requires_reservation": false,
    "reservation_days_ahead": 0,
    "open_hours": "06:30-21:00",
    "closed_rules": "极端天气可能临时关闭制高点区域",
    "closed_weekdays": [],
    "notes": "适合傍晚登顶拍摄故宫全景。"
  },
  {
    "id": "bj_beihai",
    "name": "北海公园",
    "city": "北京",
    "lat": 39.925639,
    "lon": 116.389526,
    "themes": ["历史", "园林", "自然"],
    "cluster": "imperial_garden",
    "duration_hours": 2.0,
    "ticket_price": 10.0,
    "is_free": false,
    "requires_reservation": false,
    "reservation_days_ahead": 0,
    "open_hours": "06:00-21:00",
    "closed_rules": "冰面与部分区域按季节管控",
    "closed_weekdays": [],
    "notes": "春节游船项目可能排队，建议避开午后高峰。"
  },
  {
    "id": "bj_zhongshan_park",
    "name": "中山公园",
    "city": "北京",
    "lat": 39.908723,
    "lon": 116.392708,
    "themes": ["历史", "园林"],
    "cluster": "central_axis",
    "duration_hours": 1.5,
    "ticket_price": 3.0,
    "is_free": false,
    "requires_reservation": false,
    "reservation_days_ahead": 0,
    "open_hours": "06:00-21:00",
    "closed_rules": "花展期间部分区域限流",
    "closed_weekdays": [],
    "notes": "适合作为天安门区域错峰替代点。"
  },
  {
    "id": "bj_zhengyangmen_tower",
    "name": "正阳门城楼",
    "city": "北京",
    "lat": 39.899128,
    "lon": 116.396756,
    "themes": ["历史", "地标"],
    "cluster": "old_city",
    "duration_hours": 1.0,
    "ticket_price": 20.0,
    "is_free": false,
    "requires_reservation": false,
    "reservation_days_ahead": 0,
    "open_hours": "09:00-17:00",
    "closed_rules": "周一闭馆（节假日除外）",
    "closed_weekdays": [0],
    "notes": "与前门步行街可串联，建议15:00前入场。"
  },
  {
    "id": "bj_lao_she_memorial",
    "name": "老舍故居",
    "city": "北京",
    "lat": 39.925167,
    "lon": 116.417442,
    "themes": ["历史", "文化"],
    "cluster": "old_city",
    "duration_hours": 1.0,
    "ticket_price": 0.0,
    "is_free": true,
    "requires_reservation": false,
    "reservation_days_ahead": 0,
    "open_hours": "09:00-16:30",
    "closed_rules": "周一闭馆",
    "closed_weekdays": [0],
    "notes": "闭馆前1小时停止入场。"
  },
  {
    "id": "bj_ming_city_wall_relic",
    "name": "明城墙遗址公园",
    "city": "北京",
    "lat": 39.905731,
    "lon": 116.432204,
    "themes": ["历史", "文化", "自然"],
    "cluster": "old_city",
    "duration_hours": 1.5,
    "ticket_price": 10.0,
    "is_free": false,
    "requires_reservation": false,
    "reservation_days_ahead": 0,
    "open_hours": "08:00-17:00",
    "closed_rules": "极端天气可能局部关闭",
    "closed_weekdays": [],
    "notes": "适合与东城胡同线打包，减少跨区折返。"
  },
  {
    "id": "bj_longtan_park",
    "name": "龙潭公园",
    "city": "北京",
    "lat": 39.886834,
    "lon": 116.441597,
    "themes": ["自然", "园林", "亲子"],
    "cluster": "old_city",
    "duration_hours": 1.5,
    "ticket_price": 2.0,
    "is_free": false,
    "requires_reservation": false,
    "reservation_days_ahead": 0,
    "open_hours": "06:00-21:30",
    "closed_rules": "极端天气可能临时闭园",
    "closed_weekdays": [],
    "notes": "春节家庭客较多，建议09:30前或16:00后入园。"
  }
]
