[
  {"id": "bj001", "name": "故宫博物院", "city": "北京", "lat": 39.9163, "lon": 116.3972, "themes": ["历史", "文化"], "duration_hours": 3.0, "cost": 60.0, "indoor": true, "open_time": "08:30-17:00", "description": "明清两代皇家宫殿，世界文化遗产"},
  {"id": "bj002", "name": "天安门广场", "city": "北京", "lat": 39.9055, "lon": 116.3976, "themes": ["历史", "地标"], "duration_hours": 1.0, "cost": 0.0, "indoor": false, "open_time": "05:00-22:00", "description": "世界最大的城市中心广场"},
  {"id": "bj003", "name": "颐和园", "city": "北京", "lat": 39.9999, "lon": 116.2755, "themes": ["历史", "自然", "园林"], "duration_hours": 3.0, "cost": 30.0, "indoor": false, "open_time": "06:30-18:00", "description": "中国古典园林之首"},
  {"id": "bj004", "name": "南锣鼓巷", "city": "北京", "lat": 39.9372, "lon": 116.4030, "themes": ["文艺", "美食", "网红"], "duration_hours": 2.0, "cost": 50.0, "indoor": false, "open_time": "全天", "description": "老北京胡同文艺街区"},
  {"id": "bj005", "name": "798艺术区", "city": "北京", "lat": 39.9840, "lon": 116.4950, "themes": ["文艺", "艺术", "网红"], "duration_hours": 2.5, "cost": 0.0, "indoor": false, "open_time": "10:00-18:00", "description": "当代艺术聚集地"},
  {"id": "bj006", "name": "天坛公园", "city": "北京", "lat": 39.8822, "lon": 116.4066, "themes": ["历史", "文化", "自然"], "duration_hours": 2.0, "cost": 15.0, "indoor": false, "open_time": "06:00-21:00", "description": "明清皇帝祭天之所"},
  {"id": "bj007", "name": "什刹海", "city": "北京", "lat": 39.9400, "lon": 116.3850, "themes": ["自然", "夜景", "文艺"], "duration_hours": 2.0, "cost": 0.0, "indoor": false, "open_time": "全天", "description": "北京历史文化景区，酒吧街"},
  {"id": "bj008", "name": "国家博物馆", "city": "北京", "lat": 39.9046, "lon": 116.4015, "themes": ["历史", "文化", "博物馆"], "duration_hours": 2.5, "cost": 0.0, "indoor": true, "open_time": "09:00-17:00", "description": "中国最大综合性博物馆"},
  {"id": "bj009", "name": "鸟巢/水立方", "city": "北京", "lat": 39.9929, "lon": 116.3966, "themes": ["地标", "体育"], "duration_hours": 1.5, "cost": 50.0, "indoor": false, "open_time": "09:00-21:00", "description": "2008奥运会标志性建筑"},
  {"id": "bj010", "name": "王府井大街", "city": "北京", "lat": 39.9147, "lon": 116.4104, "themes": ["美食", "购物"], "duration_hours": 2.0, "cost": 100.0, "indoor": false, "open_time": "全天", "description": "百年商业街，小吃汇聚"},
  {"id": "bj011", "name": "景山公园", "city": "北京", "lat": 39.9233, "lon": 116.3963, "themes": ["自然", "历史"], "duration_hours": 1.0, "cost": 2.0, "indoor": false, "open_time": "06:30-21:00", "description": "俯瞰故宫全景的最佳地点"},
  {"id": "bj012", "name": "北海公园", "city": "北京", "lat": 39.9262, "lon": 116.3890, "themes": ["自然", "历史", "园林"], "duration_hours": 2.0, "cost": 10.0, "indoor": false, "open_time": "06:00-21:00", "description": "中国现存最古老的皇家园林"},
  {"id": "bj013", "name": "长城（八达岭）", "city": "北京", "lat": 40.3598, "lon": 116.0204, "themes": ["历史", "地标", "自然"], "duration_hours": 4.0, "cost": 40.0, "indoor": false, "open_time": "06:30-17:00", "description": "世界七大奇迹之一"},
  {"id": "bj014", "name": "圆明园", "city": "北京", "lat": 40.0073, "lon": 116.2983, "themes": ["历史", "园林"], "duration_hours": 2.5, "cost": 10.0, "indoor": false, "open_time": "07:00-19:00", "description": "万园之园遗址"},
  {"id": "bj015", "name": "三里屯太古里", "city": "北京", "lat": 39.9337, "lon": 116.4551, "themes": ["购物", "网红", "美食"], "duration_hours": 2.0, "cost": 150.0, "indoor": false, "open_time": "10:00-22:00", "description": "时尚潮流地标"},
  {"id": "sh001", "name": "外滩", "city": "上海", "lat": 31.2400, "lon": 121.4900, "themes": ["地标", "夜景", "历史"], "duration_hours": 1.5, "cost": 0.0, "indoor": false, "open_time": "全天", "description": "万国建筑博览群"},
  {"id": "sh002", "name": "东方明珠", "city": "上海", "lat": 31.2397, "lon": 121.4998, "themes": ["地标"], "duration_hours": 2.0, "cost": 199.0, "indoor": true, "open_time": "08:00-21:30", "description": "上海标志性建筑"},
  {"id": "sh003", "name": "豫园/城隍庙", "city": "上海", "lat": 31.2271, "lon": 121.4925, "themes": ["历史", "美食", "文化"], "duration_hours": 2.0, "cost": 40.0, "indoor": false, "open_time": "08:30-17:15", "description": "江南古典园林与小吃街"},
  {"id": "sh004", "name": "田子坊", "city": "上海", "lat": 31.2101, "lon": 121.4687, "themes": ["文艺", "美食", "网红"], "duration_hours": 2.0, "cost": 50.0, "indoor": false, "open_time": "10:00-21:00", "description": "上海弄堂里的文创街区"},
  {"id": "sh005", "name": "南京路步行街", "city": "上海", "lat": 31.2344, "lon": 121.4747, "themes": ["购物", "地标"], "duration_hours": 1.5, "cost": 100.0, "indoor": false, "open_time": "全天", "description": "中华商业第一街"},
  {"id": "sh006", "name": "上海迪士尼", "city": "上海", "lat": 31.1438, "lon": 121.6580, "themes": ["亲子", "乐园"], "duration_hours": 8.0, "cost": 475.0, "indoor": false, "open_time": "08:30-20:30", "description": "中国大陆首座迪士尼乐园"},
  {"id": "sh007", "name": "武康路", "city": "上海", "lat": 31.2051, "lon": 121.4398, "themes": ["文艺", "网红", "历史"], "duration_hours": 1.5, "cost": 0.0, "indoor": false, "open_time": "全天", "description": "法租界历史风貌小马路"},
  {"id": "sh008", "name": "上海博物馆", "city": "上海", "lat": 31.2294, "lon": 121.4737, "themes": ["历史", "文化", "博物馆"], "duration_hours": 2.5, "cost": 0.0, "indoor": true, "open_time": "09:00-17:00", "description": "中国顶级综合性博物馆"},
  {"id": "sh009", "name": "新天地", "city": "上海", "lat": 31.2193, "lon": 121.4742, "themes": ["美食", "夜景", "网红"], "duration_hours": 2.0, "cost": 100.0, "indoor": false, "open_time": "11:00-23:00", "description": "石库门改造的时尚休闲区"},
  {"id": "sh010", "name": "陆家嘴", "city": "上海", "lat": 31.2355, "lon": 121.5054, "themes": ["地标", "夜景"], "duration_hours": 1.5, "cost": 0.0, "indoor": false, "open_time": "全天", "description": "中国金融中心天际线"},
  {"id": "sh011", "name": "朱家角古镇", "city": "上海", "lat": 31.1083, "lon": 121.0564, "themes": ["历史", "文艺", "自然"], "duration_hours": 3.0, "cost": 30.0, "indoor": false, "open_time": "08:30-16:30", "description": "上海最大水乡古镇"},
  {"id": "sh012", "name": "上海科技馆", "city": "上海", "lat": 31.2177, "lon": 121.5414, "themes": ["亲子", "科技", "博物馆"], "duration_hours": 3.0, "cost": 45.0, "indoor": true, "open_time": "09:00-17:15", "description": "大型科普教育基地"},
  {"id": "sh013", "name": "静安寺", "city": "上海", "lat": 31.2258, "lon": 121.4475, "themes": ["历史", "文化"], "duration_hours": 1.0, "cost": 50.0, "indoor": true, "open_time": "07:30-17:00", "description": "千年古寺闹中取静"},
  {"id": "sh014", "name": "M50创意园", "city": "上海", "lat": 31.2530, "lon": 121.4500, "themes": ["文艺", "艺术"], "duration_hours": 2.0, "cost": 0.0, "indoor": false, "open_time": "10:00-18:00", "description": "当代艺术与设计聚集地"},
  {"id": "sh015", "name": "上海野生动物园", "city": "上海", "lat": 31.0542, "lon": 121.7212, "themes": ["亲子", "自然"], "duration_hours": 4.0, "cost": 130.0, "indoor": false, "open_time": "08:00-17:00", "description": "国家级野生动物园"},

  {"id": "hz001", "name": "西湖", "city": "杭州", "lat": 30.2590, "lon": 120.1388, "themes": ["自然", "地标", "历史"], "duration_hours": 3.0, "cost": 0.0, "indoor": false, "open_time": "全天", "description": "世界文化遗产，杭州城市名片"},
  {"id": "hz002", "name": "灵隐寺", "city": "杭州", "lat": 30.2408, "lon": 120.1000, "themes": ["历史", "文化"], "duration_hours": 2.0, "cost": 75.0, "indoor": true, "open_time": "07:00-18:00", "description": "江南名寺，千年古刹"},
  {"id": "hz003", "name": "河坊街", "city": "杭州", "lat": 30.2465, "lon": 120.1703, "themes": ["美食", "历史", "文艺"], "duration_hours": 2.0, "cost": 50.0, "indoor": false, "open_time": "全天", "description": "南宋御街旁的百年老街，小吃汇聚"},
  {"id": "hz004", "name": "雷峰塔", "city": "杭州", "lat": 30.2318, "lon": 120.1488, "themes": ["历史", "地标"], "duration_hours": 1.5, "cost": 40.0, "indoor": false, "open_time": "08:00-20:30", "description": "白娘子传说地，俯瞰西湖全景"},
  {"id": "hz005", "name": "西溪湿地", "city": "杭州", "lat": 30.2605, "lon": 120.0628, "themes": ["自然", "文艺"], "duration_hours": 3.0, "cost": 80.0, "indoor": false, "open_time": "08:30-17:30", "description": "城市湿地公园，非诚勿扰取景地"},
  {"id": "hz006", "name": "龙井村", "city": "杭州", "lat": 30.2260, "lon": 120.1160, "themes": ["自然", "文艺", "美食"], "duration_hours": 2.0, "cost": 0.0, "indoor": false, "open_time": "全天", "description": "龙井茶发源地，品茶赏景"},
  {"id": "hz007", "name": "宋城", "city": "杭州", "lat": 30.1946, "lon": 120.1218, "themes": ["历史", "乐园"], "duration_hours": 4.0, "cost": 290.0, "indoor": false, "open_time": "10:00-21:00", "description": "大型宋文化主题公园，千古情演出"},
  {"id": "hz008", "name": "断桥残雪", "city": "杭州", "lat": 30.2605, "lon": 120.1530, "themes": ["自然", "历史", "地标"], "duration_hours": 1.0, "cost": 0.0, "indoor": false, "open_time": "全天", "description": "西湖十景之首，许仙白娘子相会处"},
  {"id": "hz009", "name": "杭州博物馆", "city": "杭州", "lat": 30.2462, "lon": 120.1698, "themes": ["历史", "博物馆", "文化"], "duration_hours": 2.0, "cost": 0.0, "indoor": true, "open_time": "09:00-16:30", "description": "了解杭州千年历史文化"},
  {"id": "hz010", "name": "南宋御街", "city": "杭州", "lat": 30.2484, "lon": 120.1698, "themes": ["历史", "美食", "文艺"], "duration_hours": 1.5, "cost": 0.0, "indoor": false, "open_time": "全天", "description": "南宋皇城根下的繁华古道"},
  {"id": "hz011", "name": "钱塘江大桥", "city": "杭州", "lat": 30.2098, "lon": 120.1440, "themes": ["地标", "历史"], "duration_hours": 1.0, "cost": 0.0, "indoor": false, "open_time": "全天", "description": "茅以升主持设计的中国桥梁里程碑"},
  {"id": "hz012", "name": "湖滨银泰", "city": "杭州", "lat": 30.2524, "lon": 120.1624, "themes": ["购物", "美食"], "duration_hours": 2.0, "cost": 150.0, "indoor": true, "open_time": "10:00-22:00", "description": "西湖畔的时尚商业综合体"},
  {"id": "hz013", "name": "中国丝绸博物馆", "city": "杭州", "lat": 30.2367, "lon": 120.1482, "themes": ["历史", "文化", "博物馆"], "duration_hours": 1.5, "cost": 0.0, "indoor": true, "open_time": "09:00-17:00", "description": "世界最大丝绸专题博物馆"},
  {"id": "hz014", "name": "九溪烟树", "city": "杭州", "lat": 30.2049, "lon": 120.1138, "themes": ["自然", "文艺"], "duration_hours": 2.0, "cost": 0.0, "indoor": false, "open_time": "全天", "description": "溪水潺潺的天然氧吧"},
  {"id": "hz015", "name": "楼外楼", "city": "杭州", "lat": 30.2572, "lon": 120.1420, "themes": ["美食", "历史"], "duration_hours": 1.5, "cost": 200.0, "indoor": true, "open_time": "11:00-21:00", "description": "百年老字号杭帮菜名楼，西湖醋鱼必点"},

  {"id": "cd001", "name": "武侯祠", "city": "成都", "lat": 30.6453, "lon": 104.0487, "themes": ["历史", "文化"], "duration_hours": 2.0, "cost": 50.0, "indoor": true, "open_time": "08:00-18:00", "description": "三国文化圣地，诸葛亮祠堂"},
  {"id": "cd002", "name": "锦里", "city": "成都", "lat": 30.6449, "lon": 104.0468, "themes": ["美食", "文艺", "历史"], "duration_hours": 2.0, "cost": 0.0, "indoor": false, "open_time": "全天", "description": "成都版清明上河图，小吃夜市"},
  {"id": "cd003", "name": "大熊猫基地", "city": "成都", "lat": 30.7339, "lon": 104.1465, "themes": ["自然", "亲子"], "duration_hours": 3.0, "cost": 55.0, "indoor": false, "open_time": "07:30-18:00", "description": "近距离观赏国宝大熊猫"},
  {"id": "cd004", "name": "宽窄巷子", "city": "成都", "lat": 30.6697, "lon": 104.0597, "themes": ["美食", "文艺", "网红"], "duration_hours": 2.0, "cost": 50.0, "indoor": false, "open_time": "全天", "description": "清代古街落改造的休闲街区"},
  {"id": "cd005", "name": "杜甫草堂", "city": "成都", "lat": 30.6596, "lon": 104.0363, "themes": ["历史", "文化", "园林"], "duration_hours": 2.0, "cost": 50.0, "indoor": false, "open_time": "08:00-18:30", "description": "诗圣杜甫流寓成都时的故居"},
  {"id": "cd006", "name": "春熙路", "city": "成都", "lat": 30.6571, "lon": 104.0808, "themes": ["购物", "美食", "网红"], "duration_hours": 2.0, "cost": 100.0, "indoor": false, "open_time": "全天", "description": "成都最繁华的商业步行街"},
  {"id": "cd007", "name": "都江堰", "city": "成都", "lat": 30.9984, "lon": 103.6107, "themes": ["历史", "自然", "地标"], "duration_hours": 4.0, "cost": 80.0, "indoor": false, "open_time": "08:00-17:30", "description": "两千年前的伟大水利工程"},
  {"id": "cd008", "name": "青城山", "city": "成都", "lat": 30.8981, "lon": 103.5732, "themes": ["自然", "历史", "文化"], "duration_hours": 5.0, "cost": 80.0, "indoor": false, "open_time": "08:00-17:00", "description": "道教发源地，天下幽"},
  {"id": "cd009", "name": "人民公园", "city": "成都", "lat": 30.6590, "lon": 104.0613, "themes": ["自然", "文艺"], "duration_hours": 1.5, "cost": 0.0, "indoor": false, "open_time": "全天", "description": "喝盖碗茶体验成都慢生活"},
  {"id": "cd010", "name": "文殊院", "city": "成都", "lat": 30.6750, "lon": 104.0703, "themes": ["历史", "文化", "美食"], "duration_hours": 1.5, "cost": 0.0, "indoor": true, "open_time": "08:00-17:00", "description": "千年古寺，周边素斋与美食"},
  {"id": "cd011", "name": "九眼桥", "city": "成都", "lat": 30.6410, "lon": 104.0850, "themes": ["夜景", "美食", "网红"], "duration_hours": 2.0, "cost": 80.0, "indoor": false, "open_time": "全天", "description": "成都夜生活地标，音乐酒吧街"},
  {"id": "cd012", "name": "金沙遗址博物馆", "city": "成都", "lat": 30.6835, "lon": 104.0128, "themes": ["历史", "博物馆", "文化"], "duration_hours": 2.0, "cost": 70.0, "indoor": true, "open_time": "09:00-18:00", "description": "古蜀文明太阳神鸟出土地"},

  {"id": "xa001", "name": "秦始皇兵马俑", "city": "西安", "lat": 34.3848, "lon": 109.2785, "themes": ["历史", "地标", "博物馆"], "duration_hours": 3.0, "cost": 120.0, "indoor": true, "open_time": "08:30-17:00", "description": "世界第八大奇迹"},
  {"id": "xa002", "name": "大雁塔", "city": "西安", "lat": 34.2184, "lon": 108.9594, "themes": ["历史", "地标", "文化"], "duration_hours": 2.0, "cost": 40.0, "indoor": false, "open_time": "08:00-17:30", "description": "唐代玄奘法师译经之地"},
  {"id": "xa003", "name": "回民街", "city": "西安", "lat": 34.2631, "lon": 108.9460, "themes": ["美食", "历史", "文艺"], "duration_hours": 2.0, "cost": 80.0, "indoor": false, "open_time": "全天", "description": "千年清真美食街，肉夹馍羊肉泡馍"},
  {"id": "xa004", "name": "西安城墙", "city": "西安", "lat": 34.2566, "lon": 108.9475, "themes": ["历史", "地标"], "duration_hours": 2.0, "cost": 54.0, "indoor": false, "open_time": "08:00-22:00", "description": "中国保存最完整的古代城墙"},
  {"id": "xa005", "name": "华清宫", "city": "西安", "lat": 34.3658, "lon": 109.2138, "themes": ["历史", "自然"], "duration_hours": 2.5, "cost": 120.0, "indoor": false, "open_time": "07:00-19:00", "description": "唐代皇家温泉行宫，长恨歌演出"},
  {"id": "xa006", "name": "陕西历史博物馆", "city": "西安", "lat": 34.2277, "lon": 108.9532, "themes": ["历史", "博物馆", "文化"], "duration_hours": 3.0, "cost": 0.0, "indoor": true, "open_time": "09:00-17:30", "description": "中国第一座大型现代化国家级博物馆"},
  {"id": "xa007", "name": "大唐不夜城", "city": "西安", "lat": 34.2178, "lon": 108.9590, "themes": ["夜景", "网红", "文艺"], "duration_hours": 2.0, "cost": 0.0, "indoor": false, "open_time": "全天", "description": "盛唐风格步行街，不倒翁小姐姐"},
  {"id": "xa008", "name": "钟鼓楼", "city": "西安", "lat": 34.2601, "lon": 108.9424, "themes": ["历史", "地标"], "duration_hours": 1.5, "cost": 30.0, "indoor": false, "open_time": "08:30-18:00", "description": "西安中心地标，明代建筑瑰宝"},
  {"id": "xa009", "name": "碑林博物馆", "city": "西安", "lat": 34.2530, "lon": 108.9532, "themes": ["历史", "文化", "博物馆"], "duration_hours": 2.0, "cost": 65.0, "indoor": true, "open_time": "08:00-17:30", "description": "中国最大石刻艺术宝库"},
  {"id": "xa010", "name": "永兴坊", "city": "西安", "lat": 34.2660, "lon": 108.9544, "themes": ["美食", "网红"], "duration_hours": 1.5, "cost": 60.0, "indoor": false, "open_time": "全天", "description": "摔碗酒发源地，陕西非遗美食"},
  {"id": "xa011", "name": "华山", "city": "西安", "lat": 34.4750, "lon": 110.0891, "themes": ["自然", "地标", "体育"], "duration_hours": 8.0, "cost": 160.0, "indoor": false, "open_time": "07:00-19:00", "description": "奇险天下第一山"},
  {"id": "xa012", "name": "大明宫遗址", "city": "西安", "lat": 34.2803, "lon": 108.9539, "themes": ["历史", "文化"], "duration_hours": 2.0, "cost": 60.0, "indoor": false, "open_time": "08:30-18:00", "description": "唐代最宏伟的宫殿群遗址"},

  {"id": "gz001", "name": "广州塔", "city": "广州", "lat": 23.1068, "lon": 113.3245, "themes": ["地标", "夜景"], "duration_hours": 2.0, "cost": 150.0, "indoor": true, "open_time": "09:30-22:30", "description": "小蛮腰，广州地标"},
  {"id": "gz002", "name": "沙面岛", "city": "广州", "lat": 23.1072, "lon": 113.2375, "themes": ["历史", "文艺"], "duration_hours": 1.5, "cost": 0.0, "indoor": false, "open_time": "全天", "description": "欧式建筑群落，广州近代史缩影"},
  {"id": "gz003", "name": "陈家祠", "city": "广州", "lat": 23.1273, "lon": 113.2452, "themes": ["历史", "文化", "艺术"], "duration_hours": 1.5, "cost": 10.0, "indoor": true, "open_time": "08:30-17:30", "description": "岭南建筑艺术明珠"},
  {"id": "gz004", "name": "北京路步行街", "city": "广州", "lat": 23.1247, "lon": 113.2646, "themes": ["购物", "美食", "历史"], "duration_hours": 2.0, "cost": 80.0, "indoor": false, "open_time": "全天", "description": "千年古道商业街"},
  {"id": "gz005", "name": "白云山", "city": "广州", "lat": 23.1785, "lon": 113.2991, "themes": ["自然", "体育"], "duration_hours": 3.0, "cost": 5.0, "indoor": false, "open_time": "06:00-18:00", "description": "羊城第一秀，城市后花园"},
  {"id": "gz006", "name": "上下九步行街", "city": "广州", "lat": 23.1149, "lon": 113.2474, "themes": ["美食", "历史", "购物"], "duration_hours": 2.0, "cost": 60.0, "indoor": false, "open_time": "全天", "description": "老西关骑楼街，广式早茶小吃"},
  {"id": "gz007", "name": "长隆野生动物世界", "city": "广州", "lat": 23.0029, "lon": 113.3273, "themes": ["亲子", "自然"], "duration_hours": 6.0, "cost": 300.0, "indoor": false, "open_time": "09:30-18:00", "description": "亚洲最大的野生动物主题公园"},
  {"id": "gz008", "name": "岭南印象园", "city": "广州", "lat": 23.0497, "lon": 113.3563, "themes": ["历史", "文艺", "文化"], "duration_hours": 2.0, "cost": 60.0, "indoor": false, "open_time": "09:00-17:00", "description": "岭南民俗文化体验景区"},
  {"id": "gz009", "name": "广东省博物馆", "city": "广州", "lat": 23.1182, "lon": 113.3226, "themes": ["历史", "博物馆", "文化"], "duration_hours": 2.5, "cost": 0.0, "indoor": true, "open_time": "09:00-17:00", "description": "岭南文化与自然标本大观"},
  {"id": "gz010", "name": "珠江夜游", "city": "广州", "lat": 23.1100, "lon": 113.3200, "themes": ["夜景", "地标"], "duration_hours": 1.5, "cost": 128.0, "indoor": false, "open_time": "18:00-22:00", "description": "两岸灯火辉煌的珠江游船"},

  {"id": "nj001", "name": "中山陵", "city": "南京", "lat": 32.0570, "lon": 118.8560, "themes": ["历史", "地标"], "duration_hours": 2.0, "cost": 0.0, "indoor": false, "open_time": "08:30-17:00", "description": "孙中山先生陵寝，巍峨庄严"},
  {"id": "nj002", "name": "夫子庙秦淮河", "city": "南京", "lat": 32.0195, "lon": 118.7885, "themes": ["历史", "美食", "夜景"], "duration_hours": 2.5, "cost": 40.0, "indoor": false, "open_time": "全天", "description": "十里秦淮，金陵繁华缩影"},
  {"id": "nj003", "name": "明孝陵", "city": "南京", "lat": 32.0560, "lon": 118.8420, "themes": ["历史", "自然"], "duration_hours": 2.0, "cost": 70.0, "indoor": false, "open_time": "06:30-18:00", "description": "明太祖朱元璋陵寝，世界文化遗产"},
  {"id": "nj004", "name": "总统府", "city": "南京", "lat": 32.0465, "lon": 118.7935, "themes": ["历史", "文化"], "duration_hours": 2.0, "cost": 35.0, "indoor": true, "open_time": "08:30-17:00", "description": "中国近代史的重要见证地"},
  {"id": "nj005", "name": "南京博物院", "city": "南京", "lat": 32.0497, "lon": 118.8205, "themes": ["历史", "博物馆", "文化"], "duration_hours": 3.0, "cost": 0.0, "indoor": true, "open_time": "09:00-17:00", "description": "中国三大博物馆之一"},
  {"id": "nj006", "name": "老门东", "city": "南京", "lat": 32.0139, "lon": 118.7888, "themes": ["美食", "文艺", "历史"], "duration_hours": 2.0, "cost": 50.0, "indoor": false, "open_time": "全天", "description": "南京最文艺的老城南街区"},
  {"id": "nj007", "name": "玄武湖", "city": "南京", "lat": 32.0723, "lon": 118.7935, "themes": ["自然", "园林"], "duration_hours": 2.0, "cost": 0.0, "indoor": false, "open_time": "全天", "description": "城墙与湖光山色交融"},
  {"id": "nj008", "name": "侵华日军南京大屠杀遇难同胞纪念馆", "city": "南京", "lat": 32.0326, "lon": 118.7458, "themes": ["历史", "博物馆"], "duration_hours": 2.0, "cost": 0.0, "indoor": true, "open_time": "08:30-16:30", "description": "铭记历史，珍爱和平"},
  {"id": "nj009", "name": "鸡鸣寺", "city": "南京", "lat": 32.0608, "lon": 118.7929, "themes": ["历史", "文化", "自然"], "duration_hours": 1.0, "cost": 10.0, "indoor": true, "open_time": "07:30-17:00", "description": "南朝四百八十寺之首"},
  {"id": "nj010", "name": "先锋书店", "city": "南京", "lat": 32.0454, "lon": 118.7714, "themes": ["文艺", "网红"], "duration_hours": 1.0, "cost": 0.0, "indoor": true, "open_time": "10:00-21:00", "description": "中国最美书店，文青打卡地"},

  {"id": "cq001", "name": "洪崖洞", "city": "重庆", "lat": 29.5628, "lon": 106.5796, "themes": ["夜景", "地标", "美食"], "duration_hours": 2.0, "cost": 0.0, "indoor": false, "open_time": "11:00-23:00", "description": "千与千寻同款吊脚楼，重庆名片"},
  {"id": "cq002", "name": "磁器口古镇", "city": "重庆", "lat": 29.5796, "lon": 106.4497, "themes": ["历史", "美食", "文艺"], "duration_hours": 2.5, "cost": 0.0, "indoor": false, "open_time": "全天", "description": "千年古镇，嘉陵江畔巴渝风情"},
  {"id": "cq003", "name": "解放碑", "city": "重庆", "lat": 29.5581, "lon": 106.5778, "themes": ["地标", "购物"], "duration_hours": 1.5, "cost": 0.0, "indoor": false, "open_time": "全天", "description": "重庆的精神堡垒与商圈中心"},
  {"id": "cq004", "name": "长江索道", "city": "重庆", "lat": 29.5572, "lon": 106.5843, "themes": ["地标", "网红"], "duration_hours": 1.0, "cost": 20.0, "indoor": false, "open_time": "07:30-22:30", "description": "长江上唯一的空中走廊"},
  {"id": "cq005", "name": "李子坝轻轨站", "city": "重庆", "lat": 29.5626, "lon": 106.5395, "themes": ["地标", "网红"], "duration_hours": 0.5, "cost": 0.0, "indoor": false, "open_time": "全天", "description": "轻轨穿楼而过的魔幻景观"},
  {"id": "cq006", "name": "武隆天生三桥", "city": "重庆", "lat": 29.4424, "lon": 107.7526, "themes": ["自然", "地标"], "duration_hours": 4.0, "cost": 125.0, "indoor": false, "open_time": "08:00-16:00", "description": "世界最大天生桥群，变形金刚取景地"},
  {"id": "cq007", "name": "三峡博物馆", "city": "重庆", "lat": 29.5570, "lon": 106.5655, "themes": ["历史", "博物馆", "文化"], "duration_hours": 2.0, "cost": 0.0, "indoor": true, "open_time": "09:00-17:00", "description": "巴渝文化与三峡文明的时光宝库"},
  {"id": "cq008", "name": "八一好吃街", "city": "重庆", "lat": 29.5575, "lon": 106.5765, "themes": ["美食", "网红"], "duration_hours": 1.5, "cost": 50.0, "indoor": false, "open_time": "全天", "description": "重庆小吃汇聚街区"},
  {"id": "cq009", "name": "南山一棵树观景台", "city": "重庆", "lat": 29.5398, "lon": 106.5921, "themes": ["夜景", "地标"], "duration_hours": 1.5, "cost": 30.0, "indoor": false, "open_time": "09:00-23:00", "description": "俯瞰重庆城市夜景最佳机位"},
  {"id": "cq010", "name": "鹅岭公园", "city": "重庆", "lat": 29.5548, "lon": 106.5348, "themes": ["自然", "历史"], "duration_hours": 1.5, "cost": 0.0, "indoor": false, "open_time": "全天", "description": "两江交汇处的城市阳台"},

  {"id": "cs001", "name": "岳麓山", "city": "长沙", "lat": 28.1873, "lon": 112.9453, "themes": ["自然", "历史", "文化"], "duration_hours": 3.0, "cost": 0.0, "indoor": false, "open_time": "06:00-23:00", "description": "四大名山之一，岳麓书院所在地"},
  {"id": "cs002", "name": "橘子洲头", "city": "长沙", "lat": 28.1857, "lon": 112.9655, "themes": ["历史", "地标", "自然"], "duration_hours": 2.0, "cost": 0.0, "indoor": false, "open_time": "全天", "description": "毛泽东青年铜像，湘江明珠"},
  {"id": "cs003", "name": "太平街", "city": "长沙", "lat": 28.1921, "lon": 112.9741, "themes": ["美食", "历史", "文艺"], "duration_hours": 2.0, "cost": 60.0, "indoor": false, "open_time": "全天", "description": "两千年老街，长沙小吃聚集地"},
  {"id": "cs004", "name": "湖南省博物馆", "city": "长沙", "lat": 28.2167, "lon": 112.9847, "themes": ["历史", "博物馆", "文化"], "duration_hours": 2.5, "cost": 0.0, "indoor": true, "open_time": "09:00-17:00", "description": "马王堆汉墓出土文物，辛追夫人"},
  {"id": "cs005", "name": "坡子街", "city": "长沙", "lat": 28.1899, "lon": 112.9753, "themes": ["美食", "网红"], "duration_hours": 2.0, "cost": 80.0, "indoor": false, "open_time": "全天", "description": "长沙最火美食街，臭豆腐糖油粑粑"},
  {"id": "cs006", "name": "IFS国金中心", "city": "长沙", "lat": 28.1945, "lon": 112.9768, "themes": ["购物", "网红", "地标"], "duration_hours": 2.0, "cost": 100.0, "indoor": true, "open_time": "10:00-22:00", "description": "KAWS雕塑打卡，长沙时尚地标"},
  {"id": "cs007", "name": "天心阁", "city": "长沙", "lat": 28.1886, "lon": 112.9844, "themes": ["历史", "地标"], "duration_hours": 1.5, "cost": 32.0, "indoor": false, "open_time": "08:00-17:00", "description": "长沙古城标志，潇湘古阁"},
  {"id": "cs008", "name": "火宫殿", "city": "长沙", "lat": 28.1925, "lon": 112.9733, "themes": ["美食", "历史"], "duration_hours": 1.5, "cost": 80.0, "indoor": true, "open_time": "06:30-01:30", "description": "百年老字号，毛主席打卡的臭豆腐"},
  {"id": "cs009", "name": "岳麓书院", "city": "长沙", "lat": 28.1854, "lon": 112.9422, "themes": ["历史", "文化"], "duration_hours": 1.5, "cost": 40.0, "indoor": true, "open_time": "08:00-17:30", "description": "中国四大书院之首，千年学府"},
  {"id": "cs010", "name": "杜甫江阁", "city": "长沙", "lat": 28.1870, "lon": 112.9695, "themes": ["历史", "夜景"], "duration_hours": 1.0, "cost": 0.0, "indoor": false, "open_time": "全天", "description": "湘江畔纪念杜甫的仿唐阁楼"},

  {"id": "xm001", "name": "鼓浪屿", "city": "厦门", "lat": 24.4480, "lon": 118.0651, "themes": ["文艺", "历史", "自然"], "duration_hours": 5.0, "cost": 35.0, "indoor": false, "open_time": "全天", "description": "世界文化遗产，钢琴之岛"},
  {"id": "xm002", "name": "厦门大学", "city": "厦门", "lat": 24.4389, "lon": 118.0972, "themes": ["文艺", "地标"], "duration_hours": 2.0, "cost": 0.0, "indoor": false, "open_time": "预约参观", "description": "中国最美大学之一"},
  {"id": "xm003", "name": "曾厝垵", "city": "厦门", "lat": 24.4367, "lon": 118.1120, "themes": ["美食", "文艺", "网红"], "duration_hours": 2.0, "cost": 50.0, "indoor": false, "open_time": "全天", "description": "文艺小渔村，小吃与手工艺集结地"},
  {"id": "xm004", "name": "南普陀寺", "city": "厦门", "lat": 24.4407, "lon": 118.0987, "themes": ["历史", "文化"], "duration_hours": 1.5, "cost": 0.0, "indoor": true, "open_time": "03:00-18:00", "description": "千年古刹，闽南佛教圣地"},
  {"id": "xm005", "name": "环岛路", "city": "厦门", "lat": 24.4320, "lon": 118.1300, "themes": ["自然", "地标"], "duration_hours": 2.0, "cost": 0.0, "indoor": false, "open_time": "全天", "description": "面朝大海的最美海滨步道"},
  {"id": "xm006", "name": "中山路步行街", "city": "厦门", "lat": 24.4530, "lon": 118.0810, "themes": ["美食", "购物", "历史"], "duration_hours": 2.0, "cost": 60.0, "indoor": false, "open_time": "全天", "description": "百年骑楼街，闽南小吃天堂"},
  {"id": "xm007", "name": "胡里山炮台", "city": "厦门", "lat": 24.4353, "lon": 118.1035, "themes": ["历史", "地标"], "duration_hours": 1.5, "cost": 25.0, "indoor": false, "open_time": "07:30-18:00", "description": "克虏伯大炮所在地，海防要塞"},
  {"id": "xm008", "name": "沙坡尾", "city": "厦门", "lat": 24.4395, "lon": 118.0920, "themes": ["文艺", "美食", "网红"], "duration_hours": 2.0, "cost": 0.0, "indoor": false, "open_time": "全天", "description": "老渔港改造的艺术码头，文创聚集地"},
  {"id": "xm009", "name": "植物园", "city": "厦门", "lat": 24.4413, "lon": 118.1078, "themes": ["自然", "网红"], "duration_hours": 2.5, "cost": 40.0, "indoor": false, "open_time": "06:30-18:00", "description": "雨林世界与多肉区，拍照圣地"},
  {"id": "xm010", "name": "八市", "city": "厦门", "lat": 24.4540, "lon": 118.0770, "themes": ["美食", "文艺"], "duration_hours": 1.5, "cost": 40.0, "indoor": false, "open_time": "06:00-20:00", "description": "最地道的厦门老市场，海鲜与小吃"}
]
